{
  "serverVersion": "v1.1",
  "type": "FeatureCollection",
  "features": [
    {
      "type": "Feature",
      "geometry": {
        "type": "Point",
        "coordinates": [2.2945, 48.8584]
      },
      "properties": {
        "title": "Torre Eiffel",
        "description": "La Torre Eiffel es una torre de celosía de hierro forjado situada en París, Francia.",
        "categoria": "Monumento",
        "foto": "/images/eiffel-tower.jpg"
      }
    },
    {
      "type": "Feature",
      "geometry": {
        "type": "Point",
        "coordinates": [-74.0445, 40.6892]
      },
      "properties": {
        "title": "Estatua de la Libertad",
        "description": "La Estatua de la Libertad es una escultura colosal situada en Nueva York, Estados Unidos.",
        "categoria": "Monumento",
        "foto": "/images/Statue-liberty.jpg"
      }
    },
    {
      "type": "Feature",
      "geometry": {
        "type": "Point",
        "coordinates": [116.5704, 40.4319]
      },
      "properties": {
        "title": "La Gran Muralla China",
        "description": "La Gran Muralla China es una serie de fortificaciones antiguas en el norte de China.",
        "categoria": "Histórico",
        "foto": "/images/wall-china.jpg"
      }
    },
    {
      "type": "Feature",
      "geometry": {
        "type": "Point",
        "coordinates": [151.2153, -33.8568]
      },
      "properties": {
        "title": "La Ópera de Sídney",
        "description": "La Ópera de Sídney es un icónico centro cultural ubicado en Australia.",
        "categoria": "Cultural",
        "foto": "/images/sydney-opera.jpeg"
      }
    },
    {
      "type": "Feature",
      "geometry": {
        "type": "Point",
        "coordinates": [-43.2105, -22.9519]
      },
      "properties": {
        "title": "Cristo Redentor",
        "description": "El Cristo Redentor es una estatua emblemática en Río de Janeiro, Brasil.",
        "categoria": "Monumento",
        "foto": "/images/Christ_the_Redeemer.jpg"
      }
    },
    {
      "type": "Feature",
      "geometry": {
        "type": "Point",
        "coordinates": [78.0421, 27.1751]
      },
      "properties": {
        "title": "Taj Mahal",
        "description": "El Taj Mahal es un mausoleo ubicado en Agra, India.",
        "categoria": "Histórico",
        "foto": "/images/Taj_Mahal.jpeg"
      }
    },
    {
      "type": "Feature",
      "geometry": {
        "type": "Point",
        "coordinates": [-72.5450, -13.1631]
      },
      "properties": {
        "title": "Machu Picchu",
        "description": "Machu Picchu es una ciudadela inca situada en Perú.",
        "categoria": "Histórico",
        "foto": "/images/Machu_Picchu.jpg"
      }
    },
    {
      "type": "Feature",
      "geometry": {
        "type": "Point",
        "coordinates": [31.1342, 29.9792]
      },
      "properties": {
        "title": "Gran Pirámide de Guiza",
        "description": "La Gran Pirámide es una antigua construcción en Egipto.",
        "categoria": "Histórico",
        "foto": "/images/Great_Pyramid_of_Giza.jpg"
      }
    },
    {
      "type": "Feature",
      "geometry": {
        "type": "Point",
        "coordinates": [12.4922, 41.8902]
      },
      "properties": {
        "title": "Coliseo",
        "description": "El Coliseo es un antiguo anfiteatro en Roma, Italia.",
        "categoria": "Histórico",
        "foto": "/images/Colosseum.jpg"
      }
    },
    {
      "type": "Feature",
      "geometry": {
        "type": "Point",
        "coordinates": [138.7274, 35.3606]
      },
      "properties": {
        "title": "Monte Fuji",
        "description": "El Monte Fuji es el pico más alto de Japón y un símbolo icónico.",
        "categoria": "Natural",
        "foto": "/images/Mount_fuji.jpg"
      }
    }
  ]
}
